{"0":{"City":"London","Capacity":60361,"Team":"Arsenal","Latitude":51.554901,"Longitude":-0.108436,"stadiumName":"Emirates Stadium","League":"Premier League"},"1":{"City":"Manchester","Capacity":47805,"Team":"Manchester City","Latitude":53.483002,"Longitude":-2.20024,"stadiumName":"Etihad Stadium","League":"Premier League"},"2":{"City":"Newcastle upon Tyne","Capacity":52387,"Team":"Newcastle United","Latitude":54.975601,"Longitude":-1.62179,"stadiumName":"St James Park","League":"Premier League"},"3":{"City":"London","Capacity":62303,"Team":"Tottenham Hotspur","Latitude":51.604401,"Longitude":-0.066389,"stadiumName":"Tottenham Hotspur Stadium","League":"Premier League"},"4":{"City":"Manchester","Capacity":75811,"Team":"Manchester United","Latitude":53.4631,"Longitude":-2.29139,"stadiumName":"Old Trafford","League":"Premier League"},"5":{"City":"Liverpool","Capacity":45522,"Team":"Liverpool","Latitude":53.430801,"Longitude":-2.96096,"stadiumName":"Anfield","League":"Premier League"},"6":{"City":"Brighton","Capacity":22374,"Team":"Brighton & Hove Albion","Latitude":50.860901,"Longitude":-0.08014,"stadiumName":"Amex Stadium","League":"Premier League"},"7":{"City":"London","Capacity":41837,"Team":"Chelsea","Latitude":51.481602,"Longitude":-0.191034,"stadiumName":"Stamford Bridge","League":"Premier League"},"8":{"City":"London","Capacity":25700,"Team":"Fulham","Latitude":51.474899,"Longitude":-0.221619,"stadiumName":"Craven Cottage","League":"Premier League"},"9":{"City":"London","Capacity":12763,"Team":"Brentford","Latitude":51.488201,"Longitude":-0.302621,"stadiumName":"Griffin Park","League":"Premier League"},"10":{"City":"London","Capacity":26309,"Team":"Crystal Palace","Latitude":51.3983,"Longitude":-0.085455,"stadiumName":"Selhurst Park","League":"Premier League"},"11":{"City":"Birmingham","Capacity":42788,"Team":"Aston Villa","Latitude":52.509201,"Longitude":-1.88508,"stadiumName":"Villa Park","League":"Premier League"},"12":{"City":"Leicester","Capacity":32262,"Team":"Leicester City","Latitude":52.6203,"Longitude":-1.14217,"stadiumName":"King Power Stadium","League":"Premier League"},"13":{"City":"Bournemouth","Capacity":10700,"Team":"Bournemouth","Latitude":50.735199,"Longitude":-1.83839,"stadiumName":"Seward Stadium","League":"Premier League"},"14":{"City":"Leeds","Capacity":37697,"Team":"Leeds United","Latitude":53.7775,"Longitude":-1.57212,"stadiumName":"Elland Road","League":"Premier League"},"15":{"City":"London","Capacity":60000,"Team":"West Ham United","Latitude":51.5383,"Longitude":-0.016587,"stadiumName":"London Stadium","League":"Premier League"},"16":{"City":"Liverpool","Capacity":40157,"Team":"Everton","Latitude":53.438702,"Longitude":-2.96619,"stadiumName":"Goodison Park","League":"Premier League"},"17":{"City":"Nottingham","Capacity":30603,"Team":"Nottingham Forest","Latitude":52.939899,"Longitude":-1.13258,"stadiumName":"The City Ground","League":"Premier League"},"18":{"City":"Southampton","Capacity":32689,"Team":"Southampton","Latitude":50.9058,"Longitude":-1.39114,"stadiumName":"St Mary's Stadium","League":"Premier League"},"19":{"City":"Wolverhampton","Capacity":27828,"Team":"Wolverhampton Wanderers","Latitude":52.590401,"Longitude":-2.13061,"stadiumName":"Molineux","League":"Premier League"},"20":{"City":"Burnley","Capacity":22546,"Team":"Burnley","Latitude":53.788799,"Longitude":-2.23018,"stadiumName":"Turf Moor","League":"EFL Championship"},"21":{"City":"Sheffield","Capacity":32702,"Team":"Sheffield United","Latitude":53.3703,"Longitude":-1.47083,"stadiumName":"Bramall Lane","League":"EFL Championship"},"22":{"City":"Blackburn","Capacity":31154,"Team":"Blackburn Rovers","Latitude":53.7286,"Longitude":-2.48937,"stadiumName":"Ewood Park","League":"EFL Championship"},"23":{"City":"Watford","Capacity":17477,"Team":"Watford","Latitude":51.649799,"Longitude":-0.401569,"stadiumName":"Vicarage Road","League":"EFL Championship"},"24":{"City":"Norwich","Capacity":27033,"Team":"Norwich City","Latitude":52.622101,"Longitude":1.30912,"stadiumName":"Carrow Road","League":"EFL Championship"},"25":{"City":"London","Capacity":18360,"Team":"Queens Park Rangers","Latitude":51.5093,"Longitude":-0.232204,"stadiumName":"Loftus Road","League":"EFL Championship"},"26":{"City":"Preston","Capacity":24500,"Team":"Preston North End","Latitude":53.771999,"Longitude":-2.68832,"stadiumName":"Deepdale","League":"EFL Championship"},"27":{"City":"Coventry","Capacity":32609,"Team":"Coventry City","Latitude":52.448101,"Longitude":-1.49563,"stadiumName":"Ricoh Arena","League":"EFL Championship"},"28":{"City":"Birmingham","Capacity":30009,"Team":"Birmingham City","Latitude":52.475601,"Longitude":-1.86824,"stadiumName":"St Andrews","League":"EFL Championship"},"29":{"City":"London","Capacity":20146,"Team":"Millwall","Latitude":51.485901,"Longitude":-0.050743,"stadiumName":"The Den","League":"EFL Championship"},"30":{"City":"Swansea","Capacity":20532,"Team":"Swansea City","Latitude":51.642799,"Longitude":-3.93473,"stadiumName":"Liberty Stadium","League":"EFL Championship"},"31":{"City":"Reading","Capacity":24161,"Team":"Reading","Latitude":51.422199,"Longitude":-0.982777,"stadiumName":"Madjeski Stadium","League":"EFL Championship"},"32":{"City":"Sunderland","Capacity":49000,"Team":"Sunderland","Latitude":54.9146,"Longitude":-1.38837,"stadiumName":"Stadium of Light","League":"EFL Championship"},"33":{"City":"Middlesbrough","Capacity":34988,"Team":"Middlesbrough","Latitude":54.578098,"Longitude":-1.21776,"stadiumName":"Riverside","League":"EFL Championship"},"34":{"City":"Luton","Capacity":10226,"Team":"Luton Town","Latitude":51.884201,"Longitude":-0.43155,"stadiumName":"Kenilworth Road","League":"EFL Championship"},"35":{"City":"West Bromwich","Capacity":26272,"Team":"West Bromwich Albion","Latitude":52.508999,"Longitude":-1.96418,"stadiumName":"The Hawthorns","League":"EFL Championship"},"36":{"City":"Stoke-on-Trent","Capacity":27902,"Team":"Stoke City","Latitude":52.9884,"Longitude":-2.17542,"stadiumName":"Britannia Stadium","League":"EFL Championship"},"37":{"City":"Bristol","Capacity":21497,"Team":"Bristol City","Latitude":51.439999,"Longitude":-2.62021,"stadiumName":"Ashton Gate","League":"EFL Championship"},"38":{"City":"Rotherham","Capacity":12021,"Team":"Rotherham United","Latitude":53.428101,"Longitude":-1.36172,"stadiumName":"New York Stadium","League":"EFL Championship"},"39":{"City":"Cardiff","Capacity":26828,"Team":"Cardiff City","Latitude":51.4729,"Longitude":-3.20413,"stadiumName":"Cardiff City Stadium","League":"EFL Championship"},"40":{"City":"Hull","Capacity":25586,"Team":"Hull City","Latitude":53.746498,"Longitude":-0.368009,"stadiumName":"KC Stadium","League":"EFL Championship"},"41":{"City":"Blackpool","Capacity":16220,"Team":"Blackpool","Latitude":53.8046,"Longitude":-3.04834,"stadiumName":"Bloomfield Road","League":"EFL Championship"},"42":{"City":"Wigan","Capacity":25138,"Team":"Wigan Athletic","Latitude":53.547699,"Longitude":-2.65415,"stadiumName":"DW Stadium","League":"EFL Championship"},"43":{"City":"Huddersfield","Capacity":24500,"Team":"Huddersfield Town","Latitude":53.654301,"Longitude":-1.76837,"stadiumName":"The Galpharm Stadium","League":"EFL Championship"},"44":{"City":"Plymouth","Capacity":16388,"Team":"Plymouth Argyle","Latitude":50.388199,"Longitude":-4.15076,"stadiumName":"Home Park","League":"EFL League One"},"45":{"City":"Ipswich","Capacity":30311,"Team":"Ipswich Town","Latitude":52.054401,"Longitude":1.14554,"stadiumName":"Portman Road","League":"EFL League One"},"46":{"City":"Sheffield","Capacity":39812,"Team":"Sheffield Wednesday","Latitude":53.411499,"Longitude":-1.50075,"stadiumName":"Hillsborough","League":"EFL League One"},"47":{"City":"Barnsley","Capacity":23009,"Team":"Barnsley","Latitude":53.552399,"Longitude":-1.46756,"stadiumName":"Oakwell","League":"EFL League One"},"48":{"City":"Bolton","Capacity":28723,"Team":"Bolton Wanderers","Latitude":53.580502,"Longitude":-2.53571,"stadiumName":"University of Bolton Stadium","League":"EFL League One"},"49":{"City":"Derby","Capacity":33597,"Team":"Derby County","Latitude":52.914902,"Longitude":-1.44727,"stadiumName":"Pride Park","League":"EFL League One"},"50":{"City":"Wycombe","Capacity":10284,"Team":"Wycombe Wanderers","Latitude":51.6306,"Longitude":-0.800299,"stadiumName":"Adams Park","League":"EFL League One"},"51":{"City":"Peterborough","Capacity":15315,"Team":"Peterborough United","Latitude":52.5648,"Longitude":-0.240434,"stadiumName":"London Road","League":"EFL League One"},"52":{"City":"Bristol","Capacity":12011,"Team":"Bristol Rovers","Latitude":51.486198,"Longitude":-2.58315,"stadiumName":"Memorial Stadium","League":"EFL League One"},"53":{"City":"Portsmouth","Capacity":21100,"Team":"Portsmouth","Latitude":50.796398,"Longitude":-1.06389,"stadiumName":"Fratton Park","League":"EFL League One"},"54":{"City":"Shrewsbury","Capacity":9875,"Team":"Shrewsbury Town","Latitude":52.688599,"Longitude":-2.74931,"stadiumName":"New Meadow","League":"EFL League One"},"55":{"City":"Stoke-on-Trent","Capacity":19052,"Team":"Port Vale","Latitude":53.049999,"Longitude":-2.1926,"stadiumName":"Vale Park","League":"EFL League One"},"56":{"City":"Exeter","Capacity":8541,"Team":"Exeter City","Latitude":50.730701,"Longitude":-3.52109,"stadiumName":"St James Park, Exeter","League":"EFL League One"},"57":{"City":"Lincoln","Capacity":10780,"Team":"Lincoln City","Latitude":51.538811,"Longitude":-0.017136,"stadiumName":"LNER Stadium","League":"EFL League One"},"58":{"City":"Oxford","Capacity":12500,"Team":"Oxford United","Latitude":51.7164,"Longitude":-1.20775,"stadiumName":"Kassam Stadium","League":"EFL League One"},"59":{"City":"Fleetwood","Capacity":5094,"Team":"Fleetwood Town","Latitude":53.9165,"Longitude":-3.02484,"stadiumName":"Highbury Stadium","League":"EFL League One"},"60":{"City":"Cheltenham","Capacity":7066,"Team":"Cheltenham Town","Latitude":51.9062,"Longitude":-2.06021,"stadiumName":"Whaddon Road","League":"EFL League One"},"61":{"City":"London","Capacity":27111,"Team":"Charlton Athletic","Latitude":51.4865,"Longitude":0.036757,"stadiumName":"The Valley","League":"EFL League One"},"62":{"City":"Accrington","Capacity":5057,"Team":"Accrington Stanley","Latitude":53.7654,"Longitude":-2.37106,"stadiumName":"Crown Ground","League":"EFL League One"},"63":{"City":"Cambridge","Capacity":10847,"Team":"Cambridge United","Latitude":52.212799,"Longitude":0.154298,"stadiumName":"Abbey Stadium","League":"EFL League One"},"64":{"City":"Nailsworth","Capacity":5147,"Team":"Forest Green Rovers","Latitude":51.698975,"Longitude":-2.237892,"stadiumName":"The New Lawn","League":"EFL League One"},"65":{"City":"Milton Keynes","Capacity":30500,"Team":"Milton Keynes Dons","Latitude":52.009444,"Longitude":-0.733333,"stadiumName":"Stadium MK","League":"EFL League One"},"66":{"City":"Burton-upon-Trent","Capacity":6912,"Team":"Burton Albion","Latitude":52.821899,"Longitude":-1.62708,"stadiumName":"Pirelli Stadium","League":"EFL League One"},"67":{"City":"Morecambe","Capacity":6476,"Team":"Morecambe","Latitude":54.067501,"Longitude":-2.84707,"stadiumName":"Globe Arena","League":"EFL League One"},"68":{"City":"London","Capacity":9271,"Team":"Leyton Orient","Latitude":51.560101,"Longitude":-0.012551,"stadiumName":"Brisbane Road","League":"EFL League Two"},"69":{"City":"Stevenage","Capacity":6722,"Team":"Stevenage","Latitude":51.889801,"Longitude":-0.193664,"stadiumName":"Lamex Stadium","League":"EFL League Two"},"70":{"City":"Northampton","Capacity":7653,"Team":"Northampton Town","Latitude":52.235199,"Longitude":-0.933485,"stadiumName":"Sixfields Stadium","League":"EFL League Two"},"71":{"City":"Swindon","Capacity":15728,"Team":"Swindon Town","Latitude":51.564499,"Longitude":-1.77107,"stadiumName":"The County Ground","League":"EFL League Two"},"72":{"City":"Barrow-in-Furness","Capacity":5400,"Team":"Barrow","Latitude":54.123333,"Longitude":-3.235,"stadiumName":"Holker Street","League":"EFL League Two"},"73":{"City":"Mansfield","Capacity":9186,"Team":"Mansfield Town","Latitude":53.137798,"Longitude":-1.2013,"stadiumName":"Field Mill","League":"EFL League Two"},"74":{"City":"Carlisle","Capacity":18202,"Team":"Carlisle United","Latitude":54.8955,"Longitude":-2.91365,"stadiumName":"Brunton Park","League":"EFL League Two"},"75":{"City":"Bradford","Capacity":25136,"Team":"Bradford City","Latitude":53.804199,"Longitude":-1.75902,"stadiumName":"Valley Parade","League":"EFL League Two"},"76":{"City":"Salford","Capacity":5108,"Team":"Salford City","Latitude":53.513631,"Longitude":-2.276775,"stadiumName":"Peninsula Stadium","League":"EFL League Two"},"77":{"City":"Doncaster","Capacity":15231,"Team":"Doncaster Rovers","Latitude":53.509899,"Longitude":-1.11382,"stadiumName":"Keepmoat Stadium","League":"EFL League Two"},"78":{"City":"Walsall","Capacity":11300,"Team":"Walsall","Latitude":52.565498,"Longitude":-1.99053,"stadiumName":"Bescot Stadium","League":"EFL League Two"},"79":{"City":"London","Capacity":4720,"Team":"AFC Wimbledon","Latitude":51.405102,"Longitude":-0.281984,"stadiumName":"Kingsmeadow","League":"EFL League Two"},"80":{"City":"Stockport","Capacity":10841,"Team":"Stockport County","Latitude":53.399722,"Longitude":-2.166389,"stadiumName":"Edgeley Park","League":"EFL League Two"},"81":{"City":"Cleethorpes","Capacity":9052,"Team":"Grimsby Town","Latitude":53.570053,"Longitude":-0.046333,"stadiumName":"Blundell Park","League":"EFL League Two"},"82":{"City":"Birkenhead","Capacity":16567,"Team":"Tranmere Rovers","Latitude":53.373798,"Longitude":-3.03269,"stadiumName":"Prenton Park","League":"EFL League Two"},"83":{"City":"London","Capacity":5032,"Team":"Sutton United","Latitude":51.490715,"Longitude":-0.289048,"stadiumName":"VBS Community Stadium","League":"EFL League Two"},"84":{"City":"Crewe","Capacity":10153,"Team":"Crewe Alexandra","Latitude":53.087502,"Longitude":-2.43569,"stadiumName":"Alexandra Stadium","League":"EFL League Two"},"85":{"City":"Newport","Capacity":7850,"Team":"Newport County","Latitude":51.588902,"Longitude":-2.98902,"stadiumName":"Rodney Parade","League":"EFL League Two"},"86":{"City":"Crawley","Capacity":5996,"Team":"Crawley Town","Latitude":51.099602,"Longitude":-0.194579,"stadiumName":"Broadfield Stadium","League":"EFL League Two"},"87":{"City":"Harrogate","Capacity":5000,"Team":"Harrogate Town","Latitude":53.991667,"Longitude":-1.514444,"stadiumName":"EnviroVent Stadium","League":"EFL League Two"},"88":{"City":"Rochdale","Capacity":10249,"Team":"Rochdale","Latitude":53.620899,"Longitude":-2.17993,"stadiumName":"Spotland Stadium","League":"EFL League Two"},"89":{"City":"Hartlepool","Capacity":7856,"Team":"Hartlepool United","Latitude":54.689098,"Longitude":-1.21274,"stadiumName":"Victoria Park","League":"EFL League Two"},"90":{"City":"Colchester","Capacity":10084,"Team":"Colchester United","Latitude":51.923401,"Longitude":0.897861,"stadiumName":"Weston Homes Community Stadium","League":"EFL League Two"},"91":{"City":"Gillingham","Capacity":11582,"Team":"Gillingham","Latitude":51.384399,"Longitude":0.560367,"stadiumName":"Priestfield Stadium","League":"EFL League Two"}}